"","site","intercept","temp_cent","size","sal_type_low","region","lat","long"
"1","Manatee River",39.1887653359112,0.140590210043608,-3.16584074346357,-0.694251219402507,"Florida",27.505606,-82.572771
"2","Ft. Hamer",39.7179139743539,0.117017025540608,-3.16584074346357,-0.694251219402507,"Florida",27.524882,-82.431013
"3","Tyler Cove",38.4981829281671,0.18283094640282,-3.16584074346357,-0.694251219402507,"Maryland",38.350832,-76.229018
"4","Ganey's Wharf",38.1132975184995,0.119309995978875,-3.16584074346357,-0.694251219402507,"Maryland",38.805555,-75.909065
"5","Esker Point",38.2111821291497,0.327963723130943,-3.16584074346357,-0.694251219402507,"Connecticut",41.320809,-72.001664
"6","Sawyer Park",37.5536902555511,0.245429043037187,-3.16584074346357,-0.694251219402507,"Maine",43.906985,-69.871789
"7","St. Thomas de Kent Wharf",37.3761818070275,0.121744546897162,-3.16584074346357,-0.694251219402507,"New Brunswick",46.447609,-64.636922
"8","Ritchie Wharf",35.7367576233041,0.076773724152413,-3.16584074346357,-0.694251219402507,"New Brunswick",47.004812,-65.562907
